stop_id,stop_name,stop_desc,stop_lat,stop_lon,stop_street,stop_city,stop_region,stop_postcode,stop_country,zone_id
10,"VIRGINIA/WELLS",,  39.646675,-119.830849,,,,,,
100,"YORK/11TH",,  39.502441,-119.801765,,,,,,
101,"YORK/ROCK",,  39.541981,-119.803627,,,,,,
1015,"ARLINGTON/PLUMB",,  39.550240,-119.748253,,,,,,
1016,"ARLINGTON/MT. ROSE",,  39.544357,-119.763222,,,,,,
1017,"ARLINGTON/MONROE",,  39.547836,-119.748260,,,,,,
102,"ROCK/VANCE",,  39.541843,-119.710228,,,,,,
1025,"MIRA LOMA/CABALLO",,  39.513981,-119.853966,,,,,,
1029,"WEDEKIND/HELENA",,  39.566410,-119.782898,,,,,,
103,"ROCK/TYLER",,  39.541843,-119.706314,,,,,,
104,"ROCK/GREENBRAE",,  39.537518,-119.703758,,,,,,
1041,"WEDEKIND/(COMMUNITY GRDNS)",,  39.524231,-119.895020,,,,,,
1043,"US HWY 40/SUMMIT RIDGE",,  39.528027,-119.885483,,,,,,
1044,"LANCASTER/OLD VIRGINIA",,  39.480171,-119.790512,,,,,,
1045,"LANCASTER/YORKSHIRE",,  39.550873,-119.811501,,,,,,
1046,"CARLYLE/CARLYLE CT.",,  39.512512,-119.817268,,,,,,
1047,"CARLYLE/PENDLETON",,  39.508972,-119.817276,,,,,,
1048,"YORKSHIRE/BIRMINGHAM",,  39.507736,-119.779808,,,,,,
1049,"GOLDEN VALLEY/OLD VIRGINIA",,  42.346588, -71.064514,,,,,,
105,"GREENBRAE/LORENA",,  39.532223,-119.703926,,,,,,
1050,"GOLDEN VALLEY/OLD VIRGINIA",,  39.510471,-119.777924,,,,,,
1051,"YORKSHIRE/BIRMINGHAM",,  42.338871, -71.073593,,,,,,
1052,"CARLYLE/PENDLETON",,  42.332821, -71.081032,,,,,,
1053,"CARLYLE/CARLYLE CT",,  42.355110, -71.061714,,,,,,
1054,"LANCASTER/YORKSHIRE",,  42.349991, -71.063560,,,,,,
1055,"LANCASTER/CALRIDGE POINTE",,  42.346626, -71.064545,,,,,,
1058,"NICHOLS/McCARRAN",,  42.343918, -71.065857,,,,,,
1059,"NICHOLS/VICTORIAN",,  42.343979, -71.065895,,,,,,
106,"GREENBRAE/SULLIVAN",,  39.527988,-119.702278,,,,,,
1060,"MILL/TELEGRAPH",,  42.341324, -71.069595,,,,,,
1061,"MILL/TELEGRAPH",,  42.351898, -71.062637,,,,,,
1062,"ROCK/JOULE",,  42.350922, -71.062981,,,,,,
1067,"LANCASTER/ESSEX",,  39.521351,-119.726135,,,,,,
1068,"LANCASTER/ESSEX",,  39.521278,-119.722481,,,,,,
107,"GREENBRAE/EL RANCHO",,  39.527809,-119.708641,,,,,,
1079,"GLENDALE/(Wal Mart)",,  39.526913,-119.817383,,,,,,
108,"SILVERADA/FANTASTIC (Sak 'n Save)",,  39.530849,-119.711075,,,,,,
1080,"PYRAMID/I",,  39.530811,-119.813042,,,,,,
1081,"PYRAMID/PRATER",,  39.533123,-119.813866,,,,,,
1085,"MILL/MATLEY",,  39.518490,-119.780243,,,,,,
1087,"MILL/MATLEY",,  39.518250,-119.778999,,,,,,
1088,"OROVADA/(APARTMENTS)",,  39.529522,-119.815468,,,,,,
1089,"OROVADA/(APARTMENTS)",,  39.526672,-119.814247,,,,,,
109,"SILVERADA/PARADISE",,  39.533543,-119.713333,,,,,,
1097,"McCARRAN/KIETZKE",,  39.190002,-119.772919,,,,,,
1098,"VIRGINIA/PECKHAM (NS)",,  39.180122,-119.767242,,,,,,
110,"SILVERADA/ORCHID",,  39.538372,-119.715195,,,,,,
1106,"CAPITAL/(LAWSON PRODUCTS)",,  39.162975,-119.764442,,,,,,
1107,"GLENDALE/(CASE POWER)",,  39.167187,-119.765694,,,,,,
111,"CARVILLE/TOM SAWYER",,  39.541920,-119.806717,,,,,,
112,"TOM SAWYER/(AT CORNER)",,  39.520920,-119.858856,,,,,,
1138,"KING'S ROW/McDONALD",,  39.625568,-119.877884,,,,,,
114,"SILVERADA/TYBO",,  39.523945,-119.856377,,,,,,
1141,"LANCASTER/WESTMINSTER",,  39.625385,-119.881599,,,,,,
115,"9TH/TRIDENT",,  39.523464,-119.853333,,,,,,
1150,"NEIL /DELUCCHI LN",,  39.634792,-119.905914,,,,,,
1156,"US HWY 40/(RENO AUTO WRECK)",,  39.626022,-119.901535,,,,,,
1159,"PRATER/DOLCE",,  39.625526,-119.892166,,,,,,
116,"9TH/MANHATTAN",,  39.520916,-119.852562,,,,,,
1167,"PRATER/PETES WY",,  39.569962,-119.816925,,,,,,
1168,"PRATER/VISTA",,  39.521957,-119.779961,,,,,,
1169,"SPARKS/TYCO",,  39.527481,-119.779030,,,,,,
117,"9TH/MONTELLO",,  39.541504,-119.807999,,,,,,
118,"9TH/SUTRO (SENIOR CENTER)",,  39.524734,-119.780678,,,,,,
1188,"VIRGINIA/(CEMETERY)",,  39.521683,-119.753319,,,,,,
119,"9TH/WELLS (COUNTY OFFICES)",,  39.539249,-119.807907,,,,,,
1192,"KIETZKE/REDFIELD",,  39.524853,-119.705688,,,,,,
1199,"McCARRAN/LONGLEY (FS)",,  39.512951,-119.782471,,,,,,
12,"VIRGINIA/ORCHARD PLAZA",,  39.502445,-119.801765,,,,,,
120,"SADLIER/WELLS",,  39.537334,-119.807808,,,,,,
1201,"PRATER/LILLARD (Police Station)",,  39.512680,-119.777344,,,,,,
1202,"PRATER/FEEDER",,  39.528519,-119.813774,,,,,,
1208,"LINCOLN/BOXINGTON",,  39.548290,-119.819031,,,,,,
121,"SADLIER/(APARTMENTS)",,  39.535923,-119.807800,,,,,,
1210,"SKY MOUNTAIN/SUMMIT RIDGE",,  39.538479,-119.817032,,,,,,
1211,"Sky Mountain/Arbor Ridge",,  39.534817,-119.815895,,,,,,
1212,"SKY MOUNTAIN/(NORTHWIND APTS D'WA",,  39.532688,-119.815178,,,,,,
1213,"SKY VALLEY/MISTYRIDGE",,  39.530914,-119.814636,,,,,,
1214,"SKY VALLEY/(SOUTHRIDGE APT)",,  39.529472,-119.814133,,,,,,
122,"VALLEY/HIGHLAND",,  39.514542,-119.851891,,,,,,
123,"VALLEY/POPLAR",,  39.527359,-119.804024,,,,,,
124,"VALLEY/9TH",,  39.521629,-119.745171,,,,,,
1251,"US HWY 40/DEL CURTO",,  39.524334,-119.809174,,,,,,
1254,"2ND/PARK",,  39.522961,-119.807770,,,,,,
1258,"GOLDEN VALLEY/NORTH HILLS",,  39.513294,-119.803062,,,,,,
126,"VALLEY/6TH",,  39.603485,-119.836731,,,,,,
1261,"VIRGINIA/(RENO SPORTS COMPLEX)",,  39.521900,-119.803078,,,,,,
1263,"W. 7TH/(WESTCREEK APTS)",,  39.426388,-119.761658,,,,,,
1270,"W. 7TH/ROBB",,           ,           ,,,,,,
1271,"NORTH HILLS/GOLDEN VALLEY",,  39.675472,-119.849670,,,,,,
128,"LAKE/6TH",,  39.553707,-119.826523,,,,,,
1285,"W. 7TH/PAINTED CLIFF",,           ,           ,,,,,,
1286,"BARING/SPARKS",,           ,           ,,,,,,
1287,"W. 7TH/SIERRA HIGHLANDS",,           ,           ,,,,,,
1292,"STEAD/(JC PENNEY)",,           ,           ,,,,,,
1293,"4TH/ARLINGTON",,           ,           ,,,,,,
1295,"NORTHERN NEVADA MEDICAL CENTER",,           ,           ,,,,,,
1296,"VIRGINIA/(RENO SPORTS COMPLEX)",,           ,           ,,,,,,
131,"5TH/ARLINGTON (St. Mary's Hospita",,  39.481735,-119.792786,,,,,,
1313,"KIRMAN/KUENZLI",,           ,           ,,,,,,
132,"5TH/RALSTON",,  39.533398,-119.810875,,,,,,
1324,"LILLARD/PRATER",,           ,           ,,,,,,
1325,"Lillard/Boxington",,           ,           ,,,,,,
1326,"LILLARD/(OWENS DISTRIBUTION)",,           ,           ,,,,,,
133,"5th/WASHINGTON",,  39.535435,-119.881493,,,,,,
1330,"DANDINI/E. LEONESIO",,           ,           ,,,,,,
1332,"SUTRO/4TH",,           ,           ,,,,,,
1333,"DANDINI/E. LEONESIO",,           ,           ,,,,,,
1337,"LILLARD/LINCOLN",,           ,           ,,,,,,
1339,"WEDEKIND/MONTELLO",,           ,           ,,,,,,
134,"WASHINGTON/6TH",,  39.604321,-119.836403,,,,,,
1340,"WEDEKIND/HELENA",,           ,           ,,,,,,
1341,"WEDEKIND/WHITFIELD",,           ,           ,,,,,,
1342,"WEDEKIND/CLEAR ACRE",,           ,           ,,,,,,
1343,"WEDEKIND/(COMMUNITY GARDENS)",,           ,           ,,,,,,
1344,"WEDEKIND/SILVERADA",,           ,           ,,,,,,
1345,"WEDEKIND/PLATURA",,           ,           ,,,,,,
1346,"NORTHTOWNE/LUND (Wal Mart)",,           ,           ,,,,,,
1347,"EL RANCHO/McCARRAN",,           ,           ,,,,,,
1348,"EL RANCHO/DIVOT",,           ,           ,,,,,,
1349,"EL RANCHO/SULLIVAN",,           ,           ,,,,,,
1350,"EL RANCHO/MOORE PARK",,           ,           ,,,,,,
1351,"EL RANCHO/SUN VALLEY",,           ,           ,,,,,,
1352,"EL RANCHO/CLINTON",,           ,           ,,,,,,
1353,"EL RANCHO/WEEMS",,           ,           ,,,,,,
1354,"EL RANCHO/WILD CREEK",,           ,           ,,,,,,
1356,"EL RANCHO/McCARRAN",,           ,           ,,,,,,
1365,"7TH/WASHINGTON",,           ,           ,,,,,,
1366,"7TH/CANAL",,           ,           ,,,,,,
1367,"7TH/KEYSTONE",,           ,           ,,,,,,
1368,"7TH/STARGAZE",,           ,           ,,,,,,
1370,"ROBB/MAE ANNE (NE)",,           ,           ,,,,,,
1371,"7TH/Wal Mart",,           ,           ,,,,,,
1372,"7TH/CORDILLERA",,           ,           ,,,,,,
1373,"7TH/MONTEGO",,           ,           ,,,,,,
1374,"7TH/KEYSTONE",,           ,           ,,,,,,
1375,"7TH/CANAL",,           ,           ,,,,,,
1376,"7TH/WASHINGTON",,           ,           ,,,,,,
1377,"W. 7TH/MONTEGO",,           ,           ,,,,,,
1380,"KUENZLI/KIRMAN",,           ,           ,,,,,,
14,"VIRGINIA/CARANO",,  39.550121,-119.795616,,,,,,
1409,"VIRGINIA/KIETZKE",,           ,           ,,,,,,
1411,"VIRGINIA/MEADOWOOD MALL WAY",,           ,           ,,,,,,
1412,"VIRGINIA/(Barnes & Noble)",,           ,           ,,,,,,
1413,"PRATER/MARIAN",,           ,           ,,,,,,
1414,"PRATER/VISTA",,           ,           ,,,,,,
142,"KING'S ROW/VAN PETTEN",,  39.529205,-119.817680,,,,,,
1421,"MILL/(RUNWAY)",,           ,           ,,,,,,
1422,"MILL/ROCK",,           ,           ,,,,,,
1423,"MILL/OHM",,           ,           ,,,,,,
1424,"CAPITAL/McCARRAN",,           ,           ,,,,,,
1425,"McCARRAN/PERRO",,           ,           ,,,,,,
1426,"LONGLEY/MIRA LOMA",,           ,           ,,,,,,
1427,"LONGLEY/AIRCENTER",,           ,           ,,,,,,
1428,"LONGLEY/(MYLAN)",,           ,           ,,,,,,
143,"KING'S ROW/WYOMING",,  39.540730,-119.698570,,,,,,
1430,"McCARRAN/HOME GARDENS",,           ,           ,,,,,,
1431,"LONGLEY/AIRCENTER",,           ,           ,,,,,,
1432,"LONGLEY/(HSN RECEIVING)",,           ,           ,,,,,,
1433,"McCARRAN/PERRO",,           ,           ,,,,,,
1435,"ARLINGTON/2ND",,           ,           ,,,,,,
1436,"ARLINGTON/ISLAND",,           ,           ,,,,,,
1437,"ARLINGTON/RENO",,           ,           ,,,,,,
1438,"ARLINGTON/LA RUE",,           ,           ,,,,,,
1439,"PLUMB/ARLINGTON",,           ,           ,,,,,,
144,"KING'S ROW/POLSON",,  39.555576,-119.826515,,,,,,
1440,"PLUMAS/HILLCREST",,           ,           ,,,,,,
1441,"MOANA/GRANT",,           ,           ,,,,,,
1442,"MOANA/BAKER",,           ,           ,,,,,,
1443,"MOANA/VIRGINIA",,           ,           ,,,,,,
1444,"MOANA/YORI",,           ,           ,,,,,,
1445,"KIETZKE/PECKHAM",,           ,           ,,,,,,
1446,"KIETZKE/S. VIRGINIA",,           ,           ,,,,,,
1449,"BLUESTONE/CRAIGMONT",,           ,           ,,,,,,
145,"KING'S ROW/BRIDGEWOOD",,  39.530380,-119.819244,,,,,,
1450,"BLUESTONE/PORTMAN",,           ,           ,,,,,,
1451,"OFFENHAUSER/(COMSTOCK HILLS)",,           ,           ,,,,,,
1452,"OFFENHAUSER/(ENCLAVE APTS)",,           ,           ,,,,,,
1453,"OFFENHAUSER/GATEWAY",,           ,           ,,,,,,
1454,"GATEWAY/(MOUNTAIN GATE D'WAY)",,           ,           ,,,,,,
1455,"PROTOTYPE/GATEWAY",,           ,           ,,,,,,
1456,"PROTOTYPE/(CHARTER)",,           ,           ,,,,,,
1457,"PROTOTYPE/(IGT)",,           ,           ,,,,,,
1458,"DOUBLE DIAMOND/DOUBLE R",,           ,           ,,,,,,
1459,"DOUBLE DIAMOND/TECHNOLOGY",,           ,           ,,,,,,
146,"KING'S ROW/MARNE",,  39.522095,-119.719810,,,,,,
1460,"DOUBLE DIAMOND/TERRABYTE",,           ,           ,,,,,,
1461,"DOUBLE DIAMOND/TRADEMARK",,           ,           ,,,,,,
1462,"DOUBLE DIAMOND/(Sandhill)",,           ,           ,,,,,,
1463,"DOUBLE DIAMOND/SOUTH MEADOWS",,           ,           ,,,,,,
1464,"SOUTH MEADOWS/EVERGREEN",,           ,           ,,,,,,
1465,"SOUTH MEADOWS/TRUCKEE MEADOWS",,           ,           ,,,,,,
1466,"SOUTH MEADOWS/(VINTAGE AT SOUTH MEADOWS)",,           ,           ,,,,,,
1467,"SOUTH MEADOWS/PRARIE DOG",,           ,           ,,,,,,
1468,"SOUTH MEADOWS/DOUBLE R",,           ,           ,,,,,,
1469,"GATEWAY/(RESIDENCE INN)",,           ,           ,,,,,,
147,"KING'S ROW/SURF",,  39.528793,-119.798454,,,,,,
1470,"GATEWAY/DOUBLE EAGLE",,           ,           ,,,,,,
1471,"GATEWAY/PROTOTYPE",,           ,           ,,,,,,
1472,"GATEWAY/(Office drive way )",,           ,           ,,,,,,
1473,"OFFENHAUSER/(HILLVIEW TERRACE D'W",,           ,           ,,,,,,
1474,"OFFENHAUSER/(HILLVIEW TERRACE MID",,           ,           ,,,,,,
1475,"OFFENHAUSER/(Hillview Terf)",,           ,           ,,,,,,
1476,"BLUESTONE/PORTMAN",,           ,           ,,,,,,
1477,"BLUESTONE/E. HUFFAKER",,           ,           ,,,,,,
1478,"VIRGINIA/(Butcher Boy)",,           ,           ,,,,,,
1479,"KIETZKE/REDFIELD",,           ,           ,,,,,,
148,"McCarran/Viewcrest Shopping Center",,           ,           ,,,,,,
1480,"KIETZKE/(WOODSIDE VILLAGE APTS D'",,           ,           ,,,,,,
1481,"KIETZKE/(CROSSROADS CENTER)",,           ,           ,,,,,,
1482,"Kietzke/(Peckham Square)",,           ,           ,,,,,,
1483,"MOANA/KIETZKE",,           ,           ,,,,,,
1484,"MOANA/YORI",,           ,           ,,,,,,
1485,"MOANA/SIGG",,           ,           ,,,,,,
1486,"MOANA/(THE ATRIUM)",,           ,           ,,,,,,
1487,"MOANA/GRANT",,           ,           ,,,,,,
1488,"PLUMB/PLUMAS",,           ,           ,,,,,,
1489,"ARLINGTON/LA RUE",,           ,           ,,,,,,
1490,"ARLINGTON/(WINGFIELD PARK)",,           ,           ,,,,,,
1491,"ARLINGTON/2ND",,           ,           ,,,,,,
1497,"VALLEY/ENTERPRISE",,           ,           ,,,,,,
1498,"VALLEY/HOOD",,           ,           ,,,,,,
1499,"VALLEY/DENSLOWE",,           ,           ,,,,,,
15,"VIRGINIA/BRINKBY",,  39.549751,-119.762070,,,,,,
150,"MAE ANNE/SIERRA HIGHLANDS",,           ,           ,,,,,,
1504,"MAYBERRY/HUNTER LAKE",,           ,           ,,,,,,
1505,"HUNTER LAKE/CALIFORNIA",,           ,           ,,,,,,
151,"MAE ANNE/MORNING STAR",,           ,           ,,,,,,
1513,"SPARKS/SPRINGLAND",,           ,           ,,,,,,
1514,"SPARKS/EXPRESS",,           ,           ,,,,,,
152,"MAE ANNE/SHADOW PARK",,           ,           ,,,,,,
153,"MAE ANNE/GRAND POINT",,           ,           ,,,,,,
1530,"KEYSTONE/UNIVERSITY",,           ,           ,,,,,,
1531,"KINGS ROW/MAJESTIC",,           ,           ,,,,,,
1532,"McCARRAN/LAS BRISAS",,           ,           ,,,,,,
1533,"ROBB/MAE ANNE (Long's)",,           ,           ,,,,,,
1534,"ROBB/(CANYON CREEK PARK)",,           ,           ,,,,,,
1535,"ROBB/BANKSIDE WAY",,           ,           ,,,,,,
1536,"ROBB/WALNUT CREEK",,           ,           ,,,,,,
1537,"ROBB/(SHARLANDS D'WAY)",,           ,           ,,,,,,
1538,"SUMMIT RIDGE/(INN AT SUMMIT RIDGE",,           ,           ,,,,,,
1539,"SUMMIT RIDGE/SKY MOUNTAIN",,           ,           ,,,,,,
1540,"SUMMIT RIDGE/SCENIC HILLS",,           ,           ,,,,,,
1541,"SKY VALLEY/SUMMIT RIDGE",,           ,           ,,,,,,
1542,"SKY VALLEY/(SOUTHRIDGE APTS)",,           ,           ,,,,,,
1543,"SKY MOUNTAIN/(VISTA RIDGE APTS D'",,           ,           ,,,,,,
1544,"SKY MOUNTAIN/(VISTA RIDGE WEST D'",,           ,           ,,,,,,
1545,"Sky Mountain/Arbor Ridge",,           ,           ,,,,,,
1546,"SUMMIT RIDGE/SKY MOUNTAIN",,           ,           ,,,,,,
1547,"SUMMIT RIDGE/(CITGO D'WAY)",,           ,           ,,,,,,
155,"ROBB/(McQUEEN H.S.)",,           ,           ,,,,,,
1550,"W. 4TH/CEMETERY",,           ,           ,,,,,,
1551,"W. 4TH/EDWARDS",,           ,           ,,,,,,
1552,"SKY VALLEY/SUMMIT RIDGE",,           ,           ,,,,,,
1553,"SUMMIT RIDGE/(VISTA WEST D'WAY)",,           ,           ,,,,,,
1554,"SKY MOUNTAIN/SUMMIT RIDGE",,           ,           ,,,,,,
1555,"Robb/(Scolari's)",,           ,           ,,,,,,
1556,"ROBB/BIG SPRINGS",,           ,           ,,,,,,
1557,"ROBB/BANKSIDE",,           ,           ,,,,,,
1558,"ROBB/(CANYON CREEK PARK)",,           ,           ,,,,,,
1559,"ROBB/MAE ANNE (SE)",,           ,           ,,,,,,
156,"ROBB/(NW LIBRARY)",,  39.521263,-119.719498,,,,,,
1560,"McCARRAN/LAS BRISAS",,           ,           ,,,,,,
1561,"KINGS ROW/KING JAMES",,           ,           ,,,,,,
1562,"KINGS ROW/MAJESTIC",,           ,           ,,,,,,
1563,"KEYSTONE/UNIVERSITY",,           ,           ,,,,,,
1564,"KIRMAN/AITKEN",,           ,           ,,,,,,
1565,"KIRMAN/CURTI",,           ,           ,,,,,,
1566,"WRONDEL/(GROVE GARDEN APTS)",,           ,           ,,,,,,
1567,"GROVE/YORI (S SIDE GROVE)",,           ,           ,,,,,,
1568,"GROVE/KIETZKE",,           ,           ,,,,,,
157,"ROBB/(McQUEEN H.S.)",,           ,           ,,,,,,
1570,"KIRMAN/PLUMB",,           ,           ,,,,,,
1571,"LOCUST/COLORADO RIVER",,           ,           ,,,,,,
1572,"RYLAND/LOCUST",,           ,           ,,,,,,
1573,"KIRMAN/AITKEN",,           ,           ,,,,,,
1574,"KIRMAN/KUENZLI",,           ,           ,,,,,,
1577,"SILVERADA/TOM SAWYER",,           ,           ,,,,,,
1578,"4TH/SUTRO",,           ,           ,,,,,,
1579,"SUTRO/4TH",,           ,           ,,,,,,
158,"ROBB/GLEN AULIN",,           ,           ,,,,,,
1580,"MOANA/KAUAI",,           ,           ,,,,,,
1581,"W. 7TH/McCARRAN",,           ,           ,,,,,,
1582,"ARLINGTON/4TH",,           ,           ,,,,,,
1584,"HIGHLAND/BEECH",,           ,           ,,,,,,
159,"MAE ANNE/GRAND POINT",,  39.541496,-119.711220,,,,,,
1596,"SILVERADA/CARVILLE",,           ,           ,,,,,,
1598,"4TH/(KEYSTONE SQUARE)",,           ,           ,,,,,,
160,"MAE ANNE/SHADOW PARK",,  39.538906,-119.711258,,,,,,
1601,"MEADOWOOD MALL CIRCLE/VIRGINIA",,           ,           ,,,,,,
1608,"MCCARRAN/MONTE VISTA VILLAGE",,           ,           ,,,,,,
1609,"El RANCHO/MOORE PARK CT.",,           ,           ,,,,,,
161,"MAE ANNE/QUAIL RUN",,  39.535824,-119.711288,,,,,,
1612,"CORPORATE/CAPITAL",,           ,           ,,,,,,
1613,"ROCK/PROSPECT",,           ,           ,,,,,,
1614,"MERCHANT/SULLIVAN",,           ,           ,,,,,,
1615,"5TH/BELL",,           ,           ,,,,,,
162,"MAE ANNE/(RIDGEVIEW PLAZA)",,  39.521439,-119.716133,,,,,,
1622,"S. VIRGINIA/SIERRA CENTER PKWY",,           ,           ,,,,,,
1623,"S. VIRGINIA/(Sierra Center)",,           ,           ,,,,,,
1627,"KIETZKE/PLUMB",,           ,           ,,,,,,
1628,"LAKE/MILL (Auto museum)",,           ,           ,,,,,,
1629,"6TH / RECORD",,           ,           ,,,,,,
163,"McCARRAN/7TH",,  39.539230,-119.711029,,,,,,
1630,"MCCARRAN / KIETZKE",,           ,           ,,,,,,
1631,"S. VIRGINIA/NEIL",,           ,           ,,,,,,
1632,"S. VIRGINIA/HUFFAKER LANE",,           ,           ,,,,,,
1633,"S. VIRGINIA/PATRIOT",,           ,           ,,,,,,
1634,"S. VIRGINIA/(Sierra RV)",,           ,           ,,,,,,
1636,"S. MEADOWS PRKWAY/S. VIRGINIA",,           ,           ,,,,,,
1637,"S. MEADOWS PRKWAY/GATEWAY",,           ,           ,,,,,,
1638,"DOUBLE R/RENOWN",,           ,           ,,,,,,
1639,"DOUBLE R/PROFESSIONAL CIRCLE",,           ,           ,,,,,,
164,"McCARRAN/KING'S ROW",,  39.535606,-119.711029,,,,,,
1640,"DOUBLE R/PROFESSIONAL CIRCLE",,           ,           ,,,,,,
1641,"DOUBLE R/(Dentistry Kids)",,           ,           ,,,,,,
1642,"DOUBLE R/(Legacy Wealth)",,           ,           ,,,,,,
1643,"DOUBLE R/DOUBLE DIAMOND PRKWY",,           ,           ,,,,,,
1644,"DAMONTE RANCH/HWY 395",,           ,           ,,,,,,
1645,"S. VIRGINIA/DAMONTE RANCH",,           ,           ,,,,,,
1646,"S. VIRGINIA/(Winco Entrance)",,           ,           ,,,,,,
1647,"S. VIRGINIA/PATRIOT",,           ,           ,,,,,,
1648,"S. VIRGINIA/LONGLEY",,           ,           ,,,,,,
165,"7TH/NANCY",,  39.529625,-119.823540,,,,,,
1650,"CAMPUS WAY/(Sierra Pacific)",,           ,           ,,,,,,
1651,"SIERRA CENTER/CAMPUS WAY",,           ,           ,,,,,,
1652,"SIERRA CENTER/(Sierra Town Center",,           ,           ,,,,,,
1653,"SIERRA CENTER/MAESTRO",,           ,           ,,,,,,
1654,"SIERRA CENTER/PATRIOT",,           ,           ,,,,,,
1655,"SIERRA CENTER/LONGLEY",,           ,           ,,,,,,
1656,"SIERRA CENTER/PATRIOT",,           ,           ,,,,,,
1657,"SIERRA CENTER/MAESTRO",,           ,           ,,,,,,
1658,"SIERRA CENTER/(Intuit Entrance)",,           ,           ,,,,,,
1659,"CAMPUS WAY/NEIL ROAD",,           ,           ,,,,,,
166,"KING'S ROW/MARNE",,  39.570469,-119.783356,,,,,,
1660,"HIGHLAND/EVANS",,           ,           ,,,,,,
1661,"HIGHLAND/BEECH",,           ,           ,,,,,,
1662,"VALLEY/DENSLOW",,           ,           ,,,,,,
1663,"VALLEY/SOARING EAGLE",,           ,           ,,,,,,
1664,"VALLEY/HOOD",,           ,           ,,,,,,
1665,"Enterprise/Valley",,           ,           ,,,,,,
167,"KING'S ROW/APOLLO",,  39.533955,-119.797890,,,,,,
1674,"Sharlands/Robb",,           ,           ,,,,,,
1675,"Sharlands/Sharlands Terrace Apt.",,           ,           ,,,,,,
1676,"Sharlands/Avenda de Landa",,           ,           ,,,,,,
1677,"Avenda de Landa/Chesterfield",,           ,           ,,,,,,
168,"KING'S ROW/WYOMING",,  39.570503,-119.782997,,,,,,
1680,"ARLINGTON/SECOND",,           ,           ,,,,,,
1682,"Center/7th",,           ,           ,,,,,,
169,"KING'S ROW/CROWN",,  39.603867,-119.771072,,,,,,
1697,"S. VIRGINIA/(Winco Entrance)",,           ,           ,,,,,,
1698,"S. Virginia/(Shop & Go Mkt)",,           ,           ,,,,,,
1699,"Carson St/College Pkwy",,           ,           ,,,,,,
170,"KING'S ROW/SEVERN",,  39.524910,-119.758385,,,,,,
1700,"Carson St/Hot Springs",,           ,           ,,,,,,
1702,"Stewart/(Supreme Court)",,           ,           ,,,,,,
1708,"Stewart/(Supreme Court)",,           ,           ,,,,,,
1710,"Carson St/Hot Springs",,           ,           ,,,,,,
1711,"Carson St/College Pkwy",,           ,           ,,,,,,
1712,"S. VIRGINIA/(Wal-Mart)",,           ,           ,,,,,,
1714,"Enterprise/Evans",,           ,           ,,,,,,
1719,"Parr/Ferrari-Mcleod",,           ,           ,,,,,,
1720,"SKY VISTA/LEMMON DR.",,           ,           ,,,,,,
1721,"SKY VISTA/LEMMON DR.",,           ,           ,,,,,,
1722,"SKY VISTA/North Valley Park",,           ,           ,,,,,,
1723,"SKY VISTA/North Valley park",,           ,           ,,,,,,
1724,"SILVER LAKE/SKY VISTA",,           ,           ,,,,,,
1725,"SILVER LAKE/SKY VISTA",,           ,           ,,,,,,
1726,"SILVER LAKE/FLAT LAND",,           ,           ,,,,,,
1727,"Silver Lake/Gulf Stream",,           ,           ,,,,,,
1728,"SILVER LAKE/Private Road",,           ,           ,,,,,,
1729,"SILVER LAKE/Private Road",,           ,           ,,,,,,
1731,"SILVER LAKE/STEAD",,           ,           ,,,,,,
1732,"ECHO/MT. BISMARK",,           ,           ,,,,,,
1733,"ECHO/MT. ANDERSON",,           ,           ,,,,,,
1734,"ECHO/INDUSTRY",,           ,           ,,,,,,
1735,"ECHO/MOYA",,           ,           ,,,,,,
1736,"MOYA/Warehouse",,           ,           ,,,,,,
1737,"MOYA/Herb Trade",,           ,           ,,,,,,
1738,"MOYA/LEAR",,           ,           ,,,,,,
1753,"LAKE/MILL",,           ,           ,,,,,,
1754,"Kirman/Cheney",,           ,           ,,,,,,
1755,"Locust/Cheney",,           ,           ,,,,,,
1757,"Grand Sierra Resort CC",,           ,           ,,,,,,
1758,"Glendale/Grand Sierra Resort",,           ,           ,,,,,,
1759,"GLENDALE/INDUSTRIAL",,           ,           ,,,,,,
1760,"GLENDALE/MARIETTA",,           ,           ,,,,,,
1761,"GLENDALE/LINDA WY",,           ,           ,,,,,,
1762,"GLENDALE/STANFORD",,           ,           ,,,,,,
1763,"GLENDALE/BERGIN",,           ,           ,,,,,,
1764,"GLENDALE/WATSON",,           ,           ,,,,,,
1765,"GLENDALE/PACKER",,           ,           ,,,,,,
1766,"GLENDALE/SIERRA COM CTR",,           ,           ,,,,,,
1767,"GLENDALE/DEMING",,           ,           ,,,,,,
1768,"MEREDITH/GLENDALE",,           ,           ,,,,,,
1769,"MEREDITH/KLEPPE",,           ,           ,,,,,,
1771,"GREG/KLEPPE",,           ,           ,,,,,,
1772,"GREG/DMV",,           ,           ,,,,,,
1773,"GREG/SPICE ISLAND",,           ,           ,,,,,,
1774,"GREG/MCCARRAN",,           ,           ,,,,,,
1775,"GREG/STANFORD",,           ,           ,,,,,,
1776,"GREG/LINDA WY",,           ,           ,,,,,,
1777,"GREG/MARIETTA",,           ,           ,,,,,,
1778,"INDUSTRIAL/GREG",,           ,           ,,,,,,
1779,"INDUSTRIAL/GLENDALE",,           ,           ,,,,,,
1780,"KLEPPE/TOPAZ CONST CO",,           ,           ,,,,,,
1781,"KLEPPE/ALAMO REAR",,           ,           ,,,,,,
1782,"KLEPPE/GREG",,           ,           ,,,,,,
1783,"GREG/ALAMO FRONT",,           ,           ,,,,,,
1784,"GREG DAYCO CO",,           ,           ,,,,,,
1795,"Virginia/Plaza",,           ,           ,,,,,,
1796,"Virginia/4th",,           ,           ,,,,,,
1797,"Virginia/5th",,           ,           ,,,,,,
1798,"Virginia/6th",,           ,           ,,,,,,
1799,"Virginia/8th",,           ,           ,,,,,,
180,"WASHINGTON/6TH",,  39.551579,-119.783104,,,,,,
1800,"Virginia/17th (East)",,           ,           ,,,,,,
1801,"W Stadium/17th",,           ,           ,,,,,,
1802,"W Stadium/(Mackay Stadium)",,           ,           ,,,,,,
1803,"Virginia/Artemesia (West)",,           ,           ,,,,,,
1804,"Virginia/8th (West)",,           ,           ,,,,,,
1805,"Virginia/6th (West)",,           ,           ,,,,,,
1806,"Virginia/5th (West)",,           ,           ,,,,,,
1807,"Virginia/4th (West)",,           ,           ,,,,,,
1808,"Virginia/Commercial",,           ,           ,,,,,,
1809,"Virginia/2st",,           ,           ,,,,,,
1810,"1st/Sierra",,           ,           ,,,,,,
1811,"1st/West",,           ,           ,,,,,,
1817,"Virginia/2nd (East) FS",,           ,           ,,,,,,
1818,"Wells/Moran",,           ,           ,,,,,,
1819,"Wells/Vassar",,           ,           ,,,,,,
1820,"Wells/Vesta",,           ,           ,,,,,,
1821,"Wells/Capitol Hill",,           ,           ,,,,,,
1822,"Sinclair/State",,           ,           ,,,,,,
1823,"CORPORATE/EQUITY",,           ,           ,,,,,,
1824,"Wells/Thoma",,           ,           ,,,,,,
1825,"Vassar/Terminal",,           ,           ,,,,,,
1826,"Vassar/Harvard",,           ,           ,,,,,,
183,"5TH/ARLINGTON",,  39.557686,-119.779076,,,,,,
1830,"Carson/Medical Pkwy",,           ,           ,,,,,,
1831,"Carson/Nye",,           ,           ,,,,,,
1845,"Little/NDOT",,           ,           ,,,,,,
1846,"Carson/Nye",,           ,           ,,,,,,
1847,"Carson/Hospitality",,           ,           ,,,,,,
1848,"S. VIRGINIA/MCCABE",,           ,           ,,,,,,
1850,"VIRGINIA/THOMA",,           ,           ,,,,,,
1852,"Ryland/Holcomb",,           ,           ,,,,,,
1853,"S. Virginia/Auto Center",,           ,           ,,,,,,
1854,"Stead/Midblock",,           ,           ,,,,,,
1859,"Greg/(Elite Spice)",,           ,           ,,,,,,
1860,"McCarran/Mae Anne",,           ,           ,,,,,,
1861,"McCarran/Airway",,           ,           ,,,,,,
1862,"15th/W. Stadium",,           ,           ,,,,,,
1864,"S. Virginia/Holcomb Ranch",,           ,           ,,,,,,
1865,"McCarran/Airway",,           ,           ,,,,,,
1866,"McCarran/(SN Golf Center)",,           ,           ,,,,,,
1867,"Capital/Financial",,           ,           ,,,,,,
1868,"Corporate/Capital",,           ,           ,,,,,,
1869,"Corporate/(NV Rehab)",,           ,           ,,,,,,
1870,"Equity/Corporate",,           ,           ,,,,,,
1871,"Financial/(ORC International)",,           ,           ,,,,,,
1872,"Mill/(Sierra Pacific)",,           ,           ,,,,,,
1873,"Mill/Rock",,           ,           ,,,,,,
1874,"Rock/(Rock Park)",,           ,           ,,,,,,
1875,"Rock/(W. Nevada Supply)",,           ,           ,,,,,,
1876,"Rock/Hymer",,           ,           ,,,,,,
1878,"Rock/(W. Nevada Supply)",,           ,           ,,,,,,
1879,"Rock/(Rock Park)",,           ,           ,,,,,,
188,"4TH/ARLINGTON",,  39.569996,-119.780434,,,,,,
1882,"Rock/Pittman",,           ,           ,,,,,,
1883,"McCarran/Rock",,           ,           ,,,,,,
1884,"Old Virginia/Lemmon",,           ,           ,,,,,,
1888,"Old Virginia/(North Valley Mbl. Homes)",,           ,           ,,,,,,
1889,"8th/Sun Valley",,           ,           ,,,,,,
189,"4TH/RALSTON",,  39.569710,-119.780396,,,,,,
1891,"Old Virginia/(Care Chest)",,           ,           ,,,,,,
1892,"Resource/Moya",,           ,           ,,,,,,
1893,"Production/Lear",,           ,           ,,,,,,
1894,"Lear/Stead",,           ,           ,,,,,,
1895,"8th/Lupin",,           ,           ,,,,,,
1896,"Lemmon/Buck",,           ,           ,,,,,,
1897,"York/11th",,           ,           ,,,,,,
1898,"Prater/13th",,           ,           ,,,,,,
1899,"15th/E",,           ,           ,,,,,,
19,"KIETZKE/MOANA",,  39.592674,-119.836212,,,,,,
190,"4TH/WASHINGTON",,  39.566517,-119.775566,,,,,,
1900,"Prater/(Orthodontist Office)",,           ,           ,,,,,,
1904,"Nichols/(Victorian RV)",,           ,           ,,,,,,
1905,"Nichols/(Building 45 Dway)",,           ,           ,,,,,,
1906,"Nichols/(Western Village)",,           ,           ,,,,,,
1907,"Howard/(Sparks Marina)",,           ,           ,,,,,,
1908,"Lincoln/Harbour Cove",,           ,           ,,,,,,
1909,"Marina Gateway/Lincoln",,           ,           ,,,,,,
191,"4TH/KEYSTONE (NS)",,  39.563877,-119.773880,,,,,,
1910,"Lincoln/Marina Gateway",,           ,           ,,,,,,
1911,"Lincoln/Harbour Cove",,           ,           ,,,,,,
1912,"George Farris/Legends Bay",,           ,           ,,,,,,
1913,"Old Virginia/Golden Valley",,           ,           ,,,,,,
1914,"Old Virginia/Golden Valley",,           ,           ,,,,,,
1915,"S. Virginia/Damonte Ranch",,           ,           ,,,,,,
1916,"S. Virginia/Damonte Ranch",,           ,           ,,,,,,
1917,"Lemmon/Sky Vista",,           ,           ,,,,,,
192,"KEYSTONE/5TH",,  39.557884,-119.779152,,,,,,
1920,"Cent Plaza Bay C (Rt 21)",,           ,           ,,,,,,
1921,"Cent Plaza Bay D (Rt 26)",,           ,           ,,,,,,
1922,"Cent Plaza Bay E (Rt 25)",,           ,           ,,,,,,
1924,"Cent Plaza Bay G (Rt 28)",,           ,           ,,,,,,
1925,"Cent Plaza Bay H (Rt 54)",,           ,           ,,,,,,
1926,"Cent Plaza Bay I (Rt 11)",,           ,           ,,,,,,
1927,"Cent Plaza Bay J (Rt 2)",,           ,           ,,,,,,
193,"7TH/KEYSTONE",,  39.534641,-119.825371,,,,,,
1933,"Old Virginia/Security",,           ,           ,,,,,,
1934,"2nd/Sierra",,           ,           ,,,,,,
1935,"Sadlier/Valley (Villager Apts)",,           ,           ,,,,,,
1936,"Plumb/Kietzke",,           ,           ,,,,,,
1937,"Plumb/Yori",,           ,           ,,,,,,
1938,"Plumb/Locust",,           ,           ,,,,,,
1939,"Wells/Cazazza",,           ,           ,,,,,,
194,"7TH/GENOA",,  39.532181,-119.825317,,,,,,
1940,"Plumb/Locust",,           ,           ,,,,,,
1941,"Plumb/Yori",,           ,           ,,,,,,
1942,"Plumb/Orange",,           ,           ,,,,,,
1943,"Plumb/Harvard",,           ,           ,,,,,,
1944,"Airport",,           ,           ,,,,,,
1945,"Terminal/Villanova",,           ,           ,,,,,,
1946,"9th/Dolomite",,           ,           ,,,,,,
1947,"Mill/Redwood",,           ,           ,,,,,,
1948,"Virginia/Orchard Plaza",,           ,           ,,,,,,
1949,"Virginia/Peckham (NS)",,           ,           ,,,,,,
195,"7TH/STOKER",,  39.531574,-119.828125,,,,,,
1950,"Virginia/Peckham",,           ,           ,,,,,,
1951,"Virginia/(Parklane)",,           ,           ,,,,,,
1953,"Washington/Plaza",,           ,           ,,,,,,
1954,"Robinson/Plaza",,           ,           ,,,,,,
1955,"Mill/Edison",,           ,           ,,,,,,
1956,"Lemmon/(Walgreens)",,           ,           ,,,,,,
1957,"Victorian/Pyramid",,           ,           ,,,,,,
1958,"Victorian/4th",,           ,           ,,,,,,
1959,"Victorian/Stanford",,           ,           ,,,,,,
196,"7TH/McDONALD",,  39.531090,-119.830612,,,,,,
1960,"Victorian/3rd",,           ,           ,,,,,,
1961,"Bay A 4SS (RTC 16, 17)",,           ,           ,,,,,,
1963,"Bay C 4SS (Rt 7)",,           ,           ,,,,,,
1964,"Bay D 4SS (Rt 6)",,           ,           ,,,,,,
1965,"Bay E 4SS (Rt 3)",,           ,           ,,,,,,
1966,"Bay F 4SS (Rt 4)",,           ,           ,,,,,,
1968,"Bay H 4SS (Rt 11)",,           ,           ,,,,,,
1969,"Bay I 4SS (Rts 5, 15)",,           ,           ,,,,,,
1970,"Bay J 4SS (Rts 2, 2s)",,           ,           ,,,,,,
1972,"Bay L 4SS (RAPID)",,           ,           ,,,,,,
1973,"Bay M 4SS (Rt 9)",,           ,           ,,,,,,
1974,"Bay N 4SS (Rt 14)",,           ,           ,,,,,,
1975,"Bay O 4SS (Rt 19)",,           ,           ,,,,,,
1976,"Bay P 4SS (Rt 13)",,           ,           ,,,,,,
1977,"Bay Q 4SS (CONNECT)",,           ,           ,,,,,,
1979,"Bay S 4SS (Rt 18)",,           ,           ,,,,,,
198,"7TH/RHODE ISLAND",,  39.535934,-119.825783,,,,,,
1982,"Bay V 4SS (INTERCITY)",,           ,           ,,,,,,
1985,"Evans/6th",,           ,           ,,,,,,
1986,"Evans/6th",,           ,           ,,,,,,
199,"7TH/MONTANA",,  39.530457,-119.881874,,,,,,
20,"Kietzke/(Mt. Comfort Furnishings)",,  39.590317,-119.840813,,,,,,
200,"7TH/AKARD (EAST)",,  39.537525,-119.867416,,,,,,
201,"7TH/IBIS",,  39.538116,-119.870392,,,,,,
202,"7TH/HEIGHTS",,  39.537113,-119.873863,,,,,,
203,"7TH/AKARD (WEST)",,  39.530987,-119.830437,,,,,,
204,"7TH/(PRIVATE DR)",,  39.531452,-119.828163,,,,,,
205,"7TH/McCARRAN(SENIOR HSG)",,  39.532154,-119.824974,,,,,,
206,"7TH/McCARRAN",,  39.537529,-119.873703,,,,,,
207,"7TH/CONWAY",,  39.538063,-119.826401,,,,,,
208,"7TH/AKARD (WEST)",,  39.528404,-119.797684,,,,,,
209,"7TH/DOWNEY",,  39.521618,-119.754745,,,,,,
210,"7TH/JAMES",,  39.521564,-119.749115,,,,,,
211,"7TH/MONTANA",,  39.522518,-119.708694,,,,,,
212,"7TH/RHODE ISLAND",,  39.522442,-119.704613,,,,,,
214,"7TH/McDONALD",,           ,           ,,,,,,
215,"7TH/STOKER",,           ,           ,,,,,,
216,"7TH/GENOA",,           ,           ,,,,,,
217,"7TH/ELGIN",,           ,           ,,,,,,
218,"KEYSTONE/5TH",,           ,           ,,,,,,
219,"4TH/KEYSTONE",,           ,           ,,,,,,
221,"4TH/WASHINGTON",,           ,           ,,,,,,
222,"4TH/RALSTON",,           ,           ,,,,,,
223,"4TH/ARLINGTON",,           ,           ,,,,,,
227,"SUTRO/7TH",,  39.499374,-119.800270,,,,,,
228,"SUTRO/9TH",,           ,           ,,,,,,
229,"SUTRO/CARVILLE",,           ,           ,,,,,,
23,"NEIL/PECKHAM",,  39.594852,-119.843102,,,,,,
230,"SUTRO/HADDOCK",,           ,           ,,,,,,
231,"SUTRO/OLIVER",,           ,           ,,,,,,
232,"SUTRO/TIMBER",,           ,           ,,,,,,
233,"SUTRO/(HUG HIGH)",,           ,           ,,,,,,
234,"CLEAR ACRE/SELMI",,  39.532616,-119.715485,,,,,,
235,"CLEAR ACRE/SCOTTSDALE [N]",,  39.526726,-119.813217,,,,,,
236,"Sun Valley/Rampion",,  39.522831,-119.811729,,,,,,
237,"SUN VALLEY/1ST",,  39.480042,-119.790764,,,,,,
238,"SUN VALLEY/2ND",,  39.474731,-119.787941,,,,,,
239,"SUN VALLEY/GEPFORD PKWY",,  39.475414,-119.788605,,,,,,
24,"NEIL/FILBERT (Smithridge Elmtry S",,  39.597172,-119.839584,,,,,,
240,"SUN VALLEY/4TH",,  39.541782,-119.744682,,,,,,
241,"SUN VALLEY/5TH",,  39.541889,-119.703117,,,,,,
242,"SUN VALLEY/6TH",,  39.536732,-119.842064,,,,,,
243,"SUN VALLEY/7TH",,  39.516895,-119.765701,,,,,,
25,"NEIL/JAMAICA",,  39.547390,-119.767761,,,,,,
251,"LUPIN/7TH",,  39.476536,-119.807281,,,,,,
252,"LUPIN/6TH",,  39.537201,-119.846031,,,,,,
253,"LUPIN/5TH",,  39.476803,-119.768021,,,,,,
254,"5TH/LEON",,  39.479836,-119.763496,,,,,,
255,"5TH/SUN VALLEY",,  39.483421,-119.761864,,,,,,
256,"SUN VALLEY/4TH",,  39.493366,-119.747932,,,,,,
257,"SUN VALLEY/GEPFORD PKWY",,  39.525871,-119.817162,,,,,,
258,"SUN VALLEY/2ND",,  39.523998,-119.816536,,,,,,
259,"SUN VALLEY/1ST",,  39.517048,-119.817261,,,,,,
26,"NEIL/McCARRAN",,  39.597397,-119.839394,,,,,,
260,"SUN VALLEY/SKAGGS CIRCLE",,  39.514969,-119.817268,,,,,,
261,"SUN VALLEY/DANDINI",,  39.505440,-119.816673,,,,,,
262,"CLEAR ACRE/SCOTTSDALE [N]",,  39.537811,-119.848839,,,,,,
263,"McCARRAN/CLEAR ACRE",,  39.504898,-119.812698,,,,,,
264,"SUTRO/PAINTBRUSH",,  39.491142,-119.803307,,,,,,
265,"SUTRO/TIMBER",,  39.491169,-119.799362,,,,,,
266,"SUTRO/OLIVER",,  39.492020,-119.794441,,,,,,
267,"SUTRO/HADDOCK",,  39.492546,-119.792679,,,,,,
268,"SUTRO/CARVILLE",,  39.486580,-119.789375,,,,,,
269,"SUTRO/9TH",,  39.483517,-119.790443,,,,,,
27,"NEIL/MARVEL",,  39.595310,-119.843346,,,,,,
270,"SUTRO/7TH",,  39.456352,-119.772339,,,,,,
276,"ARLINGTON/RIDGE",,  39.446045,-119.766289,,,,,,
277,"ARLINGTON/CALIFORNIA",,  39.445087,-119.762749,,,,,,
28,"NEIL/MEADOWOOD LN",,  39.593895,-119.844521,,,,,,
280,"STEAD/SAGEWOOD",,  39.451275,-119.757011,,,,,,
281,"PRATER/PARLANTI",,  39.451492,-119.753944,,,,,,
286,"PLUMAS/URBAN (Golf Course)",,  39.443954,-119.746201,,,,,,
287,"PLUMAS/MT. VIEW",,  39.441933,-119.748878,,,,,,
288,"BRINKBY/PLUMAS",,  39.441044,-119.751167,,,,,,
289,"LAKESIDE/BRINKBY",,  39.440426,-119.752762,,,,,,
29,"NEIL LN/NEIL RD",,  39.592369,-119.843307,,,,,,
290,"LAKESIDE/BERRUM",,  39.439480,-119.755745,,,,,,
291,"MOANA/LAKESIDE",,  39.438725,-119.759331,,,,,,
30,"MEADOWOOD MALL",,  39.590195,-119.841125,,,,,,
303,"McCARRAN/MEADOWOOD MALL WY",,  39.479389,-119.793472,,,,,,
305,"McCARRAN/SMITHRIDGE",,  39.482986,-119.790596,,,,,,
31,"NEIL LN/NEIL RD",,  39.592598,-119.837181,,,,,,
317,"LAKESIDE/MOANA",,  39.525913,-119.817093,,,,,,
318,"LAKESIDE/BERRUM",,  39.539906,-119.822731,,,,,,
319,"LAKESIDE/ROBINHOOD",,  39.540379,-119.819969,,,,,,
32,"NEIL/MEADOWOOD LN",,  39.536541,-119.737267,,,,,,
320,"BRINKBY/LAKESIDE",,  39.542522,-119.820343,,,,,,
321,"BRINKBY/PLUMAS",,  39.545444,-119.821526,,,,,,
322,"PLUMAS/MT. VIEW",,  39.547928,-119.821915,,,,,,
323,"PLUMAS/MORNINGSIDE",,  39.551022,-119.808235,,,,,,
33,"NEIL/MARVEL",,  39.535561,-119.740845,,,,,,
331,"ARLINGTON/ST. LAWRENCE",,  39.510330,-119.835350,,,,,,
332,"ARLINGTON/CALIFORNIA",,  39.512280,-119.835747,,,,,,
333,"ARLINGTON/RIDGE",,  39.520630,-119.824364,,,,,,
338,"VIRGINIA/7TH",,  39.553108,-119.733612,,,,,,
339,"VIRGINIA/9TH",,  39.556202,-119.733116,,,,,,
34,"NEIL/McCARRAN",,  39.547264,-119.771805,,,,,,
340,"VIRGINIA/ARTEMESIA",,  39.552238,-119.717972,,,,,,
341,"VIRGINIA/COLLEGE",,  39.550842,-119.718544,,,,,,
342,"VIRGINIA/15TH",,  39.546631,-119.715485,,,,,,
343,"VIRGINIA/(PLANETARIUM)",,  39.540951,-119.715256,,,,,,
344,"VIRGINIA/17TH",,  39.556435,-119.733086,,,,,,
345,"VIRGINIA/MORRAINE",,  39.552296,-119.733940,,,,,,
346,"Virginia/(Pottery Shop)",,  39.550030,-119.733932,,,,,,
347,"VIRGINIA/PARR",,  39.546795,-119.733925,,,,,,
348,"VIRGINIA/(BONANZA SQUARE)",,  39.530861,-119.876274,,,,,,
349,"VIRGINIA/HOGE",,  39.543076,-119.733894,,,,,,
35,"NEIL/CATALINA",,  39.517082,-119.773727,,,,,,
350,"OLD VIRGINIA/SUNSET MOUNTAIN",,  39.555584,-119.761711,,,,,,
351,"OLD VIRGINIA/WELLINGTON",,  39.556377,-119.755165,,,,,,
36,"NEIL/FILBERT",,  39.517330,-119.773140,,,,,,
363,"STEAD/SILVER LAKE DR.",,  39.520500,-119.858658,,,,,,
364,"STEAD/SAGEWOOD",,  39.519455,-119.855820,,,,,,
365,"STEAD/URAL",,  39.518948,-119.853241,,,,,,
366,"STEAD/CASCADE",,  39.520435,-119.852356,,,,,,
367,"STEAD/ROCKY MOUNTAIN",,  39.523663,-119.853546,,,,,,
368,"STEAD/LEAR",,  39.524078,-119.856346,,,,,,
369,"STEAD/MT. ANDERSON",,  39.522785,-119.858498,,,,,,
37,"NEIL/(PECKHAM GARDENS)",,  39.509796,-119.763016,,,,,,
370,"STEAD/MT. SHASTA",,  39.520718,-119.859329,,,,,,
376,"ECHO/MT. CHARLESTON",,  39.519753,-119.855995,,,,,,
377,"ECHO/LOLA",,  39.520344,-119.859238,,,,,,
378,"ECHO/MT. BABCOCK",,  39.518116,-119.885666,,,,,,
382,"STEAD/LEAR",,  39.528893,-119.881958,,,,,,
383,"STEAD/ROCKY MOUNTAIN",,  39.538567,-119.884651,,,,,,
384,"STEAD/(CRAFTSMAN'S PRESS)",,  39.539890,-119.861923,,,,,,
385,"STEAD/URAL",,  39.536625,-119.837112,,,,,,
396,"OLD VIRGINIA/LANCASTER (RALEIGH H",,  39.523846,-119.799950,,,,,,
397,"OLD VIRGINIA/WELLINGTON",,  39.526665,-119.798279,,,,,,
398,"OLD VIRGINIA/SUNSET MOUNTAIN",,  39.528091,-119.798241,,,,,,
399,"VIRGINIA/HOGE",,  39.541519,-119.784180,,,,,,
4,"VIRGINIA/CALIFORNIA",,  39.553047,-119.760933,,,,,,
400,"VIRGINIA/(BONANZA SQUARE)",,  39.532982,-119.798561,,,,,,
401,"VIRGINIA/TALUS",,  39.532223,-119.798004,,,,,,
402,"VIRGINIA/MORRAINE",,  39.531769,-119.882080,,,,,,
403,"VIRGINIA/17TH",,  39.491280,-119.805115,,,,,,
404,"VIRGINIA/(PLANETARIUM)",,  39.536716,-119.865005,,,,,,
405,"VIRGINIA/15TH",,  39.528873,-119.818230,,,,,,
406,"VIRGINIA/COLLEGE",,  39.530418,-119.817513,,,,,,
407,"VIRGINIA/10TH",,  39.540112,-119.809761,,,,,,
408,"8TH/VIRGINIA",,  39.529617,-119.878937,,,,,,
409,"SIERRA/ELM",,  39.582844,-119.830544,,,,,,
41,"Kietzke/(Shopping Center)",,  39.591949,-119.839043,,,,,,
411,"BUCK/LEMMON",,  39.676144,-119.852676,,,,,,
412,"LEMMON/MILITARY",,  39.542473,-119.783966,,,,,,
413,"LEMMON/BERNOULLI",,           ,           ,,,,,,
414,"LEMMON/HYDRAULIC",,  39.526009,-119.828987,,,,,,
415,"LEMMON/SURGE",,           ,           ,,,,,,
416,"LEMMON/LIMBER PINE",,  39.530418,-119.876450,,,,,,
428,"LEMMON/FLEETWOOD",,  39.529629,-119.822678,,,,,,
429,"LEMMON/LIMBER PINE",,  39.509567,-119.780075,,,,,,
430,"LEMMON/SURGE",,  39.509483,-119.782921,,,,,,
431,"LEMMON/HYDRAULIC",,  39.533432,-119.867516,,,,,,
432,"LEMMON/BERNOULLI",,  39.504292,-119.775726,,,,,,
433,"LEMMON/MILITARY",,  39.524734,-119.812439,,,,,,
434,"BUCK/LEMMON",,  39.464638,-119.783073,,,,,,
436,"2ND/LAKE",,  39.476929,-119.796440,,,,,,
437,"2ND/HIGH (RENO P.D.)",,  39.476601,-119.801697,,,,,,
439,"2ND/LOCUST",,  39.504116,-119.788940,,,,,,
440,"2ND/KIRMAN",,  39.525967,-119.809914,,,,,,
441,"2ND/(Renown Medical)",,  39.533699,-119.809235,,,,,,
442,"2ND/GOULD",,  39.537136,-119.864281,,,,,,
443,"KIETZKE/PROSPERITY",,  39.469856,-119.785858,,,,,,
444,"KIETZKE/MILL",,  39.457268,-119.779770,,,,,,
445,"KIETZKE/ROBERTS",,  39.453545,-119.777939,,,,,,
446,"KIETZKE/TAYLOR",,  39.445942,-119.774216,,,,,,
447,"VASSAR/KIETZKE",,  39.441547,-119.771484,,,,,,
448,"HARVARD/VASSAR",,  39.439438,-119.768791,,,,,,
449,"HARVARD/PRINCETON",,  39.438244,-119.760864,,,,,,
45,"VIRGINIA/(PEPPERMILL)",,  39.672821,-119.837944,,,,,,
450,"HARVARD/PEDRETTI (Wooster High)",,  39.435444,-119.758247,,,,,,
451,"HARVARD/PLUMB",,  39.433346,-119.756889,,,,,,
452,"GROVE/HARVARD",,  39.542065,-119.856842,,,,,,
453,"GROVE/KIETZKE",,  39.432148,-119.755783,,,,,,
454,"KIETZKE/LINDEN",,  39.430393,-119.753632,,,,,,
455,"KIETZKE/GENTRY",,  39.428474,-119.752289,,,,,,
456,"MOANA/KIETZKE",,  39.426037,-119.751068,,,,,,
457,"MOANA/NEIL",,  39.420006,-119.754318,,,,,,
458,"NEIL/MOANA",,  39.421928,-119.758286,,,,,,
459,"NEIL/MAULDIN",,  39.441284,-119.770920,,,,,,
46,"VIRGINIA/GROVE (HEIDI'S)",,  39.674034,-119.842873,,,,,,
460,"NEIL/NUTMEG",,  39.452873,-119.777252,,,,,,
461,"NEIL/PECKHAM",,  39.457012,-119.779289,,,,,,
462,"NEIL/MODEL",,  39.530605,-119.854797,,,,,,
463,"NEIL/NANNETTE",,  39.467674,-119.781715,,,,,,
464,"NEIL/EVELYN",,  39.465748,-119.780273,,,,,,
465,"Moana/Neil",,  39.464371,-119.778008,,,,,,
466,"KIETZKE/MOANA",,  39.461987,-119.776886,,,,,,
467,"KIETZKE/GENTRY",,  39.460205,-119.776733,,,,,,
468,"LINDEN/KIETZKE",,  39.458927,-119.775093,,,,,,
469,"LINDEN/HARVARD",,  39.460011,-119.776512,,,,,,
47,"VIRGINIA/(Parklane)",,  39.674004,-119.843056,,,,,,
470,"HARVARD/GROVE",,  39.462334,-119.776810,,,,,,
471,"HARVARD/PLUMB (Costco prkng lot)",,  39.464695,-119.777969,,,,,,
472,"HARVARD/PEDRETTI",,  39.467655,-119.781570,,,,,,
473,"HARVARD/VILLANOVA",,  39.538403,-119.854103,,,,,,
474,"Harvard/Vassar",,  39.539707,-119.811356,,,,,,
475,"VASSAR/KIETZKE",,  39.540039,-119.809525,,,,,,
476,"KIETZKE/MIAMI",,  39.544411,-119.807808,,,,,,
477,"KIETZKE/AUTOMOTIVE",,  39.545891,-119.807884,,,,,,
478,"KIETZKE/ROBERTS",,  39.548546,-119.807899,,,,,,
479,"KIETZKE/MILL",,  39.551079,-119.808182,,,,,,
48,"VIRGINIA/WELLS",,  39.672783,-119.838112,,,,,,
480,"KIETZKE/PROSPERITY",,  39.550976,-119.811325,,,,,,
481,"2ND/GIROUX",,  39.538139,-119.852119,,,,,,
482,"GIROUX/KUENZLI",,  39.537113,-119.846786,,,,,,
483,"KUENZLI/MANUEL",,  39.536602,-119.842720,,,,,,
485,"KUENZLI/LOCUST",,  39.531296,-119.824463,,,,,,
486,"KUENZLI/HIGH",,  39.530392,-119.818855,,,,,,
487,"2ND/LAKE",,  39.529392,-119.817535,,,,,,
488,"VIRGINIA/GENTRY",,  39.528702,-119.821007,,,,,,
489,"VIRGINIA/MOANA",,  39.492203,-119.789291,,,,,,
49,"VIRGINIA/HOLCOMB",,  39.669334,-119.832085,,,,,,
490,"VIRGINIA/PECKHAM (FS)",,  39.528294,-119.823090,,,,,,
491,"VIRGINIA/REDFIELD",,  39.527187,-119.826485,,,,,,
493,"VIRGINIA/NEIL",,  39.530903,-119.832527,,,,,,
495,"VIRGINIA/NEIL",,  39.530655,-119.837372,,,,,,
496,"VIRGINIA/GREEN ACRES",,  39.530518,-119.840271,,,,,,
498,"N. HILLS/(North Hills Center)",,  39.530422,-119.846268,,,,,,
50,"VIRGINIA/ARROYO",,  39.657825,-119.828377,,,,,,
501,"N. HILLS/(N. HILLS CTR SO)",,  39.530560,-119.849747,,,,,,
503,"VIRGINIA/GREEN ACRES",,  39.530754,-119.855415,,,,,,
505,"NEIL/DELUCCHI",,  39.534824,-119.860291,,,,,,
506,"VIRGINIA/MEADWOOD CIR",,  39.536263,-119.863197,,,,,,
507,"VIRGINIA/(CONVENTION CTR)",,  39.536343,-119.863785,,,,,,
508,"VIRGINIA/PECKHAM",,  39.534821,-119.860863,,,,,,
509,"VIRGINIA/MOANA",,  39.533390,-119.858719,,,,,,
51,"VIRGINIA/VASSAR",,  39.527714,-119.779869,,,,,,
510,"VIRGINIA/GENTRY",,  39.530994,-119.856400,,,,,,
512,"4TH/VALLEY",,  39.530357,-119.848404,,,,,,
513,"4TH/PARK",,  39.530300,-119.846733,,,,,,
514,"4TH/WELLS",,  39.530216,-119.843895,,,,,,
515,"4TH/SPOKANE",,  39.530357,-119.840752,,,,,,
516,"4TH/SUTRO",,  39.530495,-119.837563,,,,,,
517,"4TH/SAGE",,  39.530613,-119.835266,,,,,,
518,"4TH/(FARRIS MOTEL)",,  39.530731,-119.833076,,,,,,
519,"4TH/FERRARI",,  39.528057,-119.828445,,,,,,
52,"VIRGINIA/CENTER",,  39.547325,-119.782738,,,,,,
520,"4TH/(HALFWAY CLUB)",,  39.527122,-119.826309,,,,,,
521,"4TH/GALLETTI",,  39.527985,-119.823784,,,,,,
522,"PRATER/EL RANCHO",,  39.528446,-119.821419,,,,,,
523,"PRATER/20TH",,  39.528923,-119.818932,,,,,,
524,"PRATER/19TH",,  39.535358,-119.798439,,,,,,
525,"PRATER/ROCK",,  39.538185,-119.798553,,,,,,
526,"VICTORIAN/16TH",,  39.542042,-119.798584,,,,,,
528,"VICTORIAN/VICTORIAN PLAZA CIR",,  39.544189,-119.798576,,,,,,
53,"VIRGINIA/TAYLOR",,  39.543468,-119.752571,,,,,,
539,"PRATER/HOWARD",,  39.589653,-119.780334,,,,,,
542,"HOWARD/LINCOLN",,  39.600208,-119.780388,,,,,,
543,"WESTERN VILLAGE",,  39.603851,-119.780586,,,,,,
544,"NICHOLS/McCARRAN",,  39.605469,-119.780586,,,,,,
55,"VIRGINIA/CALIFORNIA",,  39.473206,-119.808014,,,,,,
551,"VICTORIAN/3RD",,  39.592819,-119.775406,,,,,,
552,"VICTORIAN/5TH",,  39.592773,-119.779976,,,,,,
553,"VICTORIAN/7TH",,  39.588570,-119.780586,,,,,,
554,"VICTORIAN/(NUGGET)",,  39.585285,-119.780518,,,,,,
556,"VICTORIAN/16TH",,  39.578838,-119.780388,,,,,,
557,"VICTORIAN/ROCK",,  39.476292,-119.781052,,,,,,
558,"PRATER/ROCK",,  39.573666,-119.781387,,,,,,
559,"PRATER/GREENBRAE",,  39.570686,-119.781990,,,,,,
56,"VIRGINIA/LIBERTY",,  39.518490,-119.780243,,,,,,
560,"PRATER/SULLIVAN",,  39.564236,-119.785774,,,,,,
561,"PRATER/EL RANCHO",,  39.556633,-119.792465,,,,,,
562,"4TH/GALLETTI (at gas station)",,  39.552624,-119.798683,,,,,,
563,"4TH/(HALFWAY CLUB)",,  39.548992,-119.798729,,,,,,
564,"4TH/FERRARI",,  39.546032,-119.798714,,,,,,
565,"4TH/THRELKEL",,  39.543884,-119.798721,,,,,,
566,"4TH/6TH",,  39.541553,-119.798706,,,,,,
568,"4TH/SPOKANE",,  39.475082,-119.778885,,,,,,
569,"4TH/WELLS",,  39.536255,-119.798622,,,,,,
57,"CENTER/RYLAND (Library)",,  39.518250,-119.778999,,,,,,
570,"4TH/EUREKA",,  39.521778,-119.816544,,,,,,
571,"4TH/VALLEY",,  39.519722,-119.817238,,,,,,
574,"PRATER/7TH",,  39.541855,-119.724907,,,,,,
575,"PRATER/4TH",,  39.501610,-119.812714,,,,,,
576,"PRATER/LYYSKI",,  39.498577,-119.812706,,,,,,
577,"PRATER/I",,  39.495087,-119.812241,,,,,,
579,"PRATER/STATION",,  39.472111,-119.779472,,,,,,
58,"CENTER/STATE",,  39.548958,-119.779503,,,,,,
580,"PRATER/PULLMAN",,  39.494049,-119.807961,,,,,,
588,"NORTHERN NEVADA MED CENTER",,  39.477093,-119.785110,,,,,,
589,"PRATER/FEEDER",,  39.477062,-119.785088,,,,,,
59,"CENTER/1ST TO 2ND (CAL-NEVA PARKI",,  39.549080,-119.779449,,,,,,
590,"PRATER/LILLARD",,  39.476849,-119.801819,,,,,,
591,"PRATER/PULLMAN",,  39.472061,-119.779648,,,,,,
592,"PRATER/STATION",,  39.491447,-119.807823,,,,,,
593,"PRATER/GREENBRAE",,  39.493122,-119.807823,,,,,,
594,"PRATER/HOWARD",,  39.494823,-119.807823,,,,,,
595,"PRATER/I",,  39.473499,-119.778290,,,,,,
596,"PRATER/PROBASCO",,  39.495560,-119.808273,,,,,,
597,"PRATER/SHRIVER",,  39.495174,-119.811958,,,,,,
598,"PRATER/4TH",,  39.498306,-119.812515,,,,,,
599,"PRATER/6TH",,  39.502308,-119.812523,,,,,,
6,"VIRGINIA/LA RUE",,  39.509411,-119.817116,,,,,,
601,"LAKE/2ND",,  39.517860,-119.817078,,,,,,
603,"Liberty/Hatch",,  39.521523,-119.816422,,,,,,
607,"KIRMAN/MORAN",,  39.538807,-119.816948,,,,,,
608,"KIRMAN/ROBERTS",,  39.541241,-119.817017,,,,,,
609,"KIRMAN/(V. A. HOSPITAL)",,  39.544182,-119.818703,,,,,,
610,"KIRMAN/VASSAR",,  39.546692,-119.820595,,,,,,
612,"KIRMAN/CAPITOL HILL",,  39.558273,-119.826378,,,,,,
613,"KIRMAN/COLONIAL WAY",,  39.561569,-119.826218,,,,,,
614,"KIRMAN/Apple",,  39.568218,-119.824280,,,,,,
615,"APPLE/WRONDEL",,  39.571312,-119.826271,,,,,,
619,"GROVE/KIETZKE",,  39.590149,-119.835083,,,,,,
62,"VALLEY/6TH",,  39.477043,-119.791786,,,,,,
620,"GROVE/YORI",,  39.480602,-119.781822,,,,,,
621,"WRONDEL/GROVE",,  39.624157,-119.882011,,,,,,
622,"APPLE/WRONDEL",,  39.626003,-119.881973,,,,,,
623,"KIRMAN/APPLE",,  39.628235,-119.881897,,,,,,
625,"LOCUST/CAPITOL HILL",,  39.634968,-119.881752,,,,,,
627,"LOCUST/VASSAR",,  39.641445,-119.881577,,,,,,
628,"LOCUST/(V. A. HOSPITAL)",,  39.646072,-119.879875,,,,,,
629,"LOCUST/ROBERTS",,  39.482143,-119.781059,,,,,,
63,"VALLEY/7TH",,  39.488274,-119.794769,,,,,,
630,"LOCUST/STEWART",,  39.649685,-119.875893,,,,,,
632,"Ryland/Park",,  39.654064,-119.878525,,,,,,
633,"Liberty/Hatch",,  39.654255,-119.880760,,,,,,
636,"LAKE/2nd",,  39.648159,-119.881935,,,,,,
637,"MILL/RIVER ROCK",,  39.642044,-119.881859,,,,,,
638,"MILL/HIGH",,  39.640339,-119.881905,,,,,,
639,"MILL/WELLS",,  39.632874,-119.882072,,,,,,
64,"VALLEY/9TH",,  39.504883,-119.802925,,,,,,
640,"MILL/LOCUST",,  39.631222,-119.882118,,,,,,
641,"MILL/KIRMAN (Renown Med)",,  39.625790,-119.882233,,,,,,
642,"MILL/YORI",,  39.592350,-119.835838,,,,,,
643,"MILL/GOULD",,  39.590683,-119.835396,,,,,,
646,"GRAND SIERRA/MILL",,  39.520084,-119.810265,,,,,,
647,"Grand Sierra Resort Clockwise",,  39.571678,-119.827118,,,,,,
648,"MILL/TERMINAL",,  39.562206,-119.826416,,,,,,
65,"VALLEY/POPLAR",,  39.543182,-119.783775,,,,,,
655,"MILL/EDISON",,  39.534981,-119.816467,,,,,,
656,"Financial/(First Resource)",,  39.533295,-119.816811,,,,,,
657,"EQUITY/CORPORATE",,  39.490696,-119.789040,,,,,,
658,"CORPORATE/(NEVADA REHAB.)",,  39.614052,-119.847694,,,,,,
659,"CAPITAL/ROCK",,  39.622612,-119.848137,,,,,,
66,"VALLEY/SADLIER",,  39.645992,-119.881958,,,,,,
663,"ENERGY/EDISON",,  39.638081,-119.842278,,,,,,
664,"ENERGY/REACTOR",,  39.639469,-119.840576,,,,,,
665,"ENERGY/ROCK",,  39.643875,-119.834503,,,,,,
666,"ROCK/MILL",,  39.664619,-119.829704,,,,,,
667,"MILL/GREG",,  39.671459,-119.834236,,,,,,
668,"MILL/RESERVATION",,  39.675159,-119.847435,,,,,,
669,"MILL/SUNSHINE",,  39.674007,-119.849396,,,,,,
67,"SADLIER/WELLS",,  39.505589,-119.751335,,,,,,
670,"MILL/KIETZKE",,  39.674522,-119.854019,,,,,,
672,"MILL/YORI",,  39.671642,-119.834785,,,,,,
673,"MILL/(Renown Medical)",,  39.664841,-119.829918,,,,,,
674,"MILL/LOCUST",,  39.644188,-119.834290,,,,,,
675,"MILL/WELLS",,  39.639786,-119.840782,,,,,,
676,"MILL/HIGH",,  39.638252,-119.842674,,,,,,
677,"EVANS/7TH",,  39.635815,-119.844284,,,,,,
678,"EVANS/9TH",,  39.632416,-119.845367,,,,,,
68,"9TH/WELLS (COUNTY OFFICES)",,  39.502914,-119.754204,,,,,,
69,"9TH/SUTRO (WESTHILL)",,  39.527565,-119.761940,,,,,,
692,"WEDEKIND/CLEAR ACRE",,  39.512951,-119.787933,,,,,,
693,"WEDEKIND/WHITFIELD",,  39.512535,-119.785904,,,,,,
694,"WEDEKIND/PATTON",,  39.511387,-119.785904,,,,,,
7,"VIRGINIA/MARY",,  39.512615,-119.817093,,,,,,
70,"9TH/SAGE",,  39.503445,-119.753746,,,,,,
700,"VALLEY/SOARING EAGLE",,  39.499798,-119.789215,,,,,,
704,"HIGHLAND/EVANS",,  39.492043,-119.780525,,,,,,
705,"EVANS/9TH (U.N.R.)",,  39.489040,-119.780403,,,,,,
706,"EVANS/7TH",,  39.501614,-119.801086,,,,,,
707,"2ND/STEVENSON",,  39.487206,-119.780312,,,,,,
708,"2ND/WASHINGTON",,  39.484646,-119.780090,,,,,,
709,"KEYSTONE/1ST",,  39.487499,-119.780182,,,,,,
71,"9TH/GRAPHITE",,  39.542084,-119.781807,,,,,,
710,"BOOTH/WESTFIELD",,  39.489777,-119.780273,,,,,,
711,"CALIFORNIA/CHERRY LN",,  39.491272,-119.780319,,,,,,
712,"CALIFORNIA/MAYBERRY",,  39.493053,-119.780914,,,,,,
72,"9TH/TRIDENT",,  39.624989,-119.882256,,,,,,
721,"HUNTER LAKE/FOSTER",,  39.509232,-119.785797,,,,,,
722,"HUNTER LAKE/IDLEWILD",,  39.512558,-119.785835,,,,,,
723,"IDLEWILD/(SKATE PARK)",,  39.513042,-119.787613,,,,,,
724,"IDLEWILD/COWAN",,  39.515339,-119.789032,,,,,,
725,"IDLEWILD/BOOTH",,  39.517773,-119.789032,,,,,,
726,"BOOTH/(FEDERAL COURT)",,  39.520077,-119.789024,,,,,,
727,"KEYSTONE/1ST",,  39.522232,-119.789070,,,,,,
728,"SUN VALLEY/EL RANCHO",,  39.507027,-119.803703,,,,,,
729,"2ND/WINTERS",,  39.524738,-119.789040,,,,,,
73,"SILVERADA/TYBO",,  39.541439,-119.781868,,,,,,
730,"2ND/STEVENSON",,  39.527596,-119.790459,,,,,,
732,"PARR/CATRON",,  39.529240,-119.793922,,,,,,
733,"PARR/PARR CIRCLE WEST",,  39.528419,-119.800301,,,,,,
734,"PARR/PARR CIRCLE EAST",,  39.528358,-119.806274,,,,,,
735,"PARR/7-11",,  39.527649,-119.809967,,,,,,
737,"DANDINI/(T.M.C.C.)",,  39.491898,-119.796600,,,,,,
738,"PARR/Sheriff's H.Q.",,  39.509335,-119.804832,,,,,,
739,"PARR/PARR CIRCLE EAST",,  39.486820,-119.794083,,,,,,
74,"SILVERADA/TOM SAWYER",,  39.536873,-119.838196,,,,,,
740,"PARR/PARR CIRCLE WEST",,  39.484676,-119.792999,,,,,,
741,"PARR/CATRON",,  39.467094,-119.784279,,,,,,
742,"2ND/GOLDEN",,  39.467075,-119.784531,,,,,,
745,"GLENDALE/GALLETTI",,  39.604084,-119.840065,,,,,,
746,"GLENDALE/21ST",,  39.511650,-119.805977,,,,,,
747,"GLENDALE/18TH",,  39.604046,-119.839180,,,,,,
748,"GLENDALE/16TH",,  39.462845,-119.782188,,,,,,
75,"TOM SAWYER/SILVERADA",,  39.539764,-119.784584,,,,,,
76,"CARVILLE/TOM SAWYER",,  39.475807,-119.811684,,,,,,
77,"SILVERADA/CARVILLE",,  39.592632,-119.837852,,,,,,
773,"GLENDALE/15TH",,  39.534801,-119.761566,,,,,,
774,"GLENDALE/18TH",,  39.534538,-119.756493,,,,,,
775,"GLENDALE/21ST",,  39.535820,-119.754547,,,,,,
777,"GLENDALE/GALLETTI",,  39.539181,-119.742966,,,,,,
778,"GLENDALE/COLONY",,  39.538651,-119.741089,,,,,,
78,"SILVERADA/PARADISE",,           ,           ,,,,,,
781,"4TH/EDWARDS",,  39.541798,-119.731514,,,,,,
782,"4TH/CEMETERY",,  39.541035,-119.730942,,,,,,
783,"4TH/STOKER",,  39.538292,-119.732506,,,,,,
79,"SILVERADA/FANTASTIC",,  39.614517,-119.770027,,,,,,
798,"MIRA LOMA/BOYNTON",,  39.536018,-119.775696,,,,,,
799,"MIRA LOMA/RIO POCO",,  39.535149,-119.781181,,,,,,
8,"VIRGINIA/ARROYO",,  39.551098,-119.762032,,,,,,
80,"GREENBRAE/EL RANCHO",,  39.612644,-119.768921,,,,,,
800,"MIRA LOMA/McCARRAN",,  39.534500,-119.784729,,,,,,
81,"GREENBRAE/SULLIVAN",,  39.607521,-119.768845,,,,,,
810,"MIRA LOMA/RIO POCO",,  39.538383,-119.752800,,,,,,
811,"MIRA LOMA/BOYNTON",,  39.540524,-119.751312,,,,,,
814,"EDISON/ROCK",,  39.541824,-119.737015,,,,,,
819,"4TH/O",,  39.539333,-119.697769,,,,,,
82,"GREENBRAE/17TH",,  39.539143,-119.787247,,,,,,
820,"4TH/RICHARDS",,  39.541035,-119.697884,,,,,,
821,"YORK/4TH",,  39.542007,-119.707001,,,,,,
83,"ROCK/GREENBRAE",,  39.470757,-119.780334,,,,,,
84,"ROCK/TYLER",,  39.473545,-119.787674,,,,,,
843,"BARING/(REED HIGH)",,  39.503960,-119.798279,,,,,,
85,"ROCK/VANCE",,  39.607288,-119.770531,,,,,,
857,"PYRAMID/PRATER",,  39.526943,-119.810501,,,,,,
858,"PYRAMID/K",,  39.525471,-119.807762,,,,,,
859,"GREENBRAE/5TH",,  39.525738,-119.805275,,,,,,
86,"ROCK/YORK",,  39.520645,-119.844749,,,,,,
871,"SPRINGLAND/SYCAMORE GLEN",,  39.539085,-119.807724,,,,,,
872,"SPRINGLAND/SHADY OAK",,  39.513817,-119.751411,,,,,,
873,"VICTORIAN/STANFORD",,  39.510513,-119.747391,,,,,,
886,"PYRAMID/K",,  39.541851,-119.803604,,,,,,
887,"Pyramid/H (NNCIL)",,  39.522522,-119.790565,,,,,,
890,"Liberty/Wells",,  39.525185,-119.797371,,,,,,
9,"VIRGINIA/MT. ROSE",,  39.646633,-119.830750,,,,,,
90,"YORK/NELSON",,  39.542564,-119.698944,,,,,,
907,"Terminal/Airmotive",,  39.525993,-119.818810,,,,,,
909,"NORTHTOWNE/LUND (Wal Mart)",,  39.523426,-119.825455,,,,,,
91,"YORK/4TH",,  39.541988,-119.703217,,,,,,
910,"LUND/WEDEKIND",,  39.538605,-119.789940,,,,,,
911,"WEDEKIND/SILVERADA",,  39.515770,-119.826530,,,,,,
918,"Wells/Vassar",,  39.519848,-119.830605,,,,,,
919,"Wells/Burns",,  39.519932,-119.827026,,,,,,
92,"4TH/RICHARDS",,  39.545147,-119.714714,,,,,,
920,"Wells/Cheney",,  39.518127,-119.826500,,,,,,
921,"Wells/Stewart",,  39.523499,-119.825279,,,,,,
929,"COMMERCE/MERCHANT",,  39.526962,-119.781067,,,,,,
93,"4TH/GREENBRAE",,  39.538597,-119.794899,,,,,,
930,"MERCHANT/(MERCHANT APTS.)",,  39.525238,-119.779228,,,,,,
932,"GREENBRAE/OROVADA",,  39.527565,-119.771027,,,,,,
933,"SILVERADA/OROVADA",,  39.527523,-119.768707,,,,,,
94,"GREENBRAE/5TH",,  39.538612,-119.798897,,,,,,
940,"OROVADA/SILVERADA",,  39.521664,-119.742386,,,,,,
941,"GREENBRAE/OROVADA",,  39.521351,-119.739044,,,,,,
955,"HUFFAKER/LONGLEY",,  39.527550,-119.742935,,,,,,
957,"US HWY 40/(ARROWHEAD MOBL)",,  39.527504,-119.747635,,,,,,
958,"US HWY 40/TWIN LAKES",,  39.527557,-119.753120,,,,,,
962,"US HWY 40/SUMMIT RIDGE",,  39.527821,-119.771713,,,,,,
963,"W. 4th/Stoker",,  39.527771,-119.777222,,,,,,
964,"CLEAR ACRE/CRYSTAL",,  39.527802,-119.777229,,,,,,
965,"CLEAR ACRE/CRYSTAL",,  39.527599,-119.786491,,,,,,
966,"KIETZKE/(LaRAMBLA MBL HOME)",,  39.544491,-119.782845,,,,,,
973,"MAE ANNE/(Burger King)",,  39.486053,-119.755333,,,,,,
98,"YORK/PYRAMID",,  39.480228,-119.793633,,,,,,
980,"AVE. DE LANDA/ENCHANTED VLY",,  39.499187,-119.752625,,,,,,
981,"MAE ANNE/AMBASSADOR",,  39.501530,-119.757912,,,,,,
982,"MAE ANNE/STONE VALLEY",,  39.547932,-119.748161,,,,,,
99,"VIRGINIA/KIETZKE",,  39.477005,-119.765854,,,,,,
993,"ENTERPRISE/EVANS",,  39.556469,-119.718384,,,,,,
997,"ARLINGTON/MONROE",,  39.540920,-119.752655,,,,,,
998,"ARLINGTON/MT. ROSE",,  39.545479,-119.752548,,,,,,
